
{"type":"FeatureCollection","features":[{"type":"Feature","geometry":{"type":"Point","coordinates":[-73.99,40.71]},"properties":{"event_type":"4","event_id":"4256","store_id":"3","date":"09\/23\/2016","start_time":"11:00:00","end_time":"17:00:00","store_name":"Herald Square","address1":"151 W. 34TH STREET","address2":"","city":"New York","state":"NY","zip":"10001","region":"Northeast","district":"Herald Square","floor":"1st floor","contact_phone":"000-000-0000","contact_email":"fitforthecure@macys.com","phone":"212-695-4400","lat":"40.7100","lon":"-73.9900","event_status":"published"}},{"type":"Feature","geometry":{"type":"Point","coordinates":[-72.83,41.71]},"properties":{"event_type":"4","event_id":"4257","store_id":"4","date":"09\/22\/2016","start_time":"11:00:00","end_time":"17:00:00","store_name":"Westfarms","address1":"100 Westfarms Mall","address2":"","city":"Farmington","state":"CT","zip":"06032","region":"Northeast","district":"Connecticut","floor":"1st floor","contact_phone":"000-000-0000","contact_email":"fitforthecure@macys.com","phone":"860-561-3030","lat":"41.7100","lon":"-72.8300","event_status":"published"}},{"type":"Feature","geometry":{"type":"Point","coordinates":[-73.69,40.79]},"properties":{"event_type":"4","event_id":"4258","store_id":"5","date":"09\/21\/2016","start_time":"11:00:00","end_time":"17:00:00","store_name":"Manhasset","address1":"1100 NORTHERN BLVD","address2":"","city":"Manhasset","state":"NY","zip":"11030","region":"Northeast","district":"Long Island West","floor":"1st floor","contact_phone":"000-000-0000","contact_email":"fitforthecure@macys.com","phone":"516-869-8500","lat":"40.7900","lon":"-73.6900","event_status":"published"}},{"type":"Feature","geometry":{"type":"Point","coordinates":[-73.11,40.85]},"properties":{"event_type":"4","event_id":"4259","store_id":"13","date":"09\/22\/2016","start_time":"11:00:00","end_time":"17:00:00","store_name":"Smith Haven","address1":"2 Smith Haven Mall","address2":"","city":"Lake Grove","state":"NY","zip":"11755","region":"Northeast","district":"Long Island East","floor":"1st floor","contact_phone":"000-000-0000","contact_email":"fitforthecure@macys.com","phone":"631-724-4900","lat":"40.8500","lon":"-73.1100","event_status":"published"}},{"type":"Feature","geometry":{"type":"Point","coordinates":[-74.33,40.74]},"properties":{"event_type":"4","event_id":"4260","store_id":"15","date":"09\/23\/2016","start_time":"11:00:00","end_time":"17:00:00","store_name":"Short Hills","address1":"1220 Morris Turnpike","address2":"Short Hills Mall","city":"Short Hills","state":"NJ","zip":"07078","region":"Mid-Atlantic","district":"NJ North","floor":"1st floor","contact_phone":"000-000-0000","contact_email":"fitforthecure@macys.com","phone":"973-467-0800","lat":"40.7400","lon":"-74.3300","event_status":"published"}},{"type":"Feature","geometry":{"type":"Point","coordinates":[-66.06,18.4]},"properties":{"event_type":"4","event_id":"4261","store_id":"21","date":"10\/20\/2016","start_time":"11:00:00","end_time":"17:00:00","store_name":"Plaza Las Americas","address1":"525 F. D. Roosevelt Avenue","address2":"Plaza Las Americas","city":"San Juan","state":"PR","zip":"00918","region":"Southeast","district":"Miami South","floor":"1st floor","contact_phone":"000-000-0000","contact_email":"fitforthecure@macys.com","phone":"787-296-3970","lat":"18.4000","lon":"-66.0600","event_status":"published"}},{"type":"Feature","geometry":{"type":"Point","coordinates":[-73.47,41.4]},"properties":{"event_type":"4","event_id":"4262","store_id":"28","date":"09\/21\/2016","start_time":"11:00:00","end_time":"17:00:00","store_name":"Danbury Fair","address1":"7 Backus Avenue","address2":"Danbury Fair Mall","city":"Danbury","state":"CT","zip":"06813","region":"Northeast","district":"NY South","floor":"1st floor","contact_phone":"000-000-0000","contact_email":"fitforthecure@macys.com","phone":"203-731-3500","lat":"41.4000","lon":"-73.4700","event_status":"published"}},{"type":"Feature","geometry":{"type":"Point","coordinates":[-71,42.2]},"properties":{"event_type":"4","event_id":"4263","store_id":"36","date":"09\/22\/2016","start_time":"11:00:00","end_time":"17:00:00","store_name":"South Shore Plaza","address1":"250 Granite Street","address2":"South Shore Plaza","city":"Braintree","state":"MA","zip":"02184","region":"Northeast","district":"New England Central","floor":"1st floor","contact_phone":"000-000-0000","contact_email":"fitforthecure@macys.com","phone":"781-848-3800","lat":"42.2000","lon":"-71.0000","event_status":"published"}},{"type":"Feature","geometry":{"type":"Point","coordinates":[-70.28,43.63]},"properties":{"event_type":"4","event_id":"4264","store_id":"38","date":"09\/23\/2016","start_time":"11:00:00","end_time":"17:00:00","store_name":"South Portland","address1":"100 Maine Mall Road","address2":"Maine Mall","city":"Portland","state":"ME","zip":"04106","region":"Northeast","district":"New England North","floor":"1st floor","contact_phone":"000-000-0000","contact_email":"fitforthecure@macys.com","phone":"207-775-5431","lat":"43.6300","lon":"-70.2800","event_status":"published"}},{"type":"Feature","geometry":{"type":"Point","coordinates":[-76.85,39.2]},"properties":{"event_type":"4","event_id":"4265","store_id":"45","date":"09\/23\/2016","start_time":"11:00:00","end_time":"17:00:00","store_name":"Mall In Columbia","address1":"10300 LITTLE PATUXENT PKWY","address2":"","city":"Columbia","state":"MD","zip":"21044","region":"Mid-Atlantic","district":"DelMarVa North","floor":"1st floor","contact_phone":"000-000-0000","contact_email":"fitforthecure@macys.com","phone":"410-997-3000","lat":"39.2000","lon":"-76.8500","event_status":"published"}},{"type":"Feature","geometry":{"type":"Point","coordinates":[-73.64,40.72]},"properties":{"event_type":"4","event_id":"4266","store_id":"53","date":"09\/23\/2016","start_time":"11:00:00","end_time":"17:00:00","store_name":"Roosevelt Field","address1":"630 Old Country Road","address2":"","city":"Garden City","state":"NY","zip":"11530","region":"Northeast","district":"Long Island West","floor":"1st floor","contact_phone":"000-000-0000","contact_email":"fitforthecure@macys.com","phone":"516-746-8200","lat":"40.7200","lon":"-73.6400","event_status":"published"}},{"type":"Feature","geometry":{"type":"Point","coordinates":[-74.99,39.9]},"properties":{"event_type":"4","event_id":"4267","store_id":"59","date":"09\/21\/2016","start_time":"11:00:00","end_time":"17:00:00","store_name":"Cherry Hill","address1":"RT. 38 & HADDONFIELD RD","address2":"Cherry Hill Mall","city":"Cherry Hill","state":"NJ","zip":"08002","region":"Mid-Atlantic","district":"Philadelphia","floor":"1st floor","contact_phone":"000-000-0000","contact_email":"fitforthecure@macys.com","phone":"856-665-5000","lat":"39.9000","lon":"-74.9900","event_status":"published"}},{"type":"Feature","geometry":{"type":"Point","coordinates":[-76.34,39.53]},"properties":{"event_type":"4","event_id":"4268","store_id":"60","date":"09\/22\/2016","start_time":"11:00:00","end_time":"17:00:00","store_name":"Harford","address1":"US ROUTE 1 & TOLLGATE ROAD","address2":"Harford Mall","city":"Bel Air","state":"MD","zip":"21014","region":"Mid-Atlantic","district":"DelMarVa North","floor":"1st floor","contact_phone":"000-000-0000","contact_email":"fitforthecure@macys.com","phone":"410-879-9801","lat":"39.5300","lon":"-76.3400","event_status":"published"}},{"type":"Feature","geometry":{"type":"Point","coordinates":[-75.48,40.63]},"properties":{"event_type":"4","event_id":"4269","store_id":"70","date":"09\/23\/2016","start_time":"11:00:00","end_time":"17:00:00","store_name":"Lehigh Valley","address1":"300 Lehigh Valley Mall","address2":"","city":"Whitehall","state":"PA","zip":"18052","region":"Mid-Atlantic","district":"Philadelphia","floor":"1st floor","contact_phone":"000-000-0000","contact_email":"fitforthecure@macys.com","phone":"610-264-8711","lat":"40.6300","lon":"-75.4800","event_status":"published"}},{"type":"Feature","geometry":{"type":"Point","coordinates":[-74.07,40.94]},"properties":{"event_type":"4","event_id":"4270","store_id":"75","date":"09\/21\/2016","start_time":"11:00:00","end_time":"17:00:00","store_name":"Garden State Plaza","address1":"500 Garden State Plaza","address2":"","city":"Paramus","state":"NJ","zip":"07652","region":"Northeast","district":"NYC Metro","floor":"1st floor","contact_phone":"000-000-0000","contact_email":"fitforthecure@macys.com","phone":"201-843-9100","lat":"40.9400","lon":"-74.0700","event_status":"published"}},{"type":"Feature","geometry":{"type":"Point","coordinates":[-74.24,40.94]},"properties":{"event_type":"4","event_id":"4271","store_id":"76","date":"09\/22\/2016","start_time":"11:00:00","end_time":"17:00:00","store_name":"Willowbrook","address1":"100 ROUTE 46","address2":"","city":"Wayne","state":"NJ","zip":"07470","region":"Mid-Atlantic","district":"NJ North","floor":"1st floor","contact_phone":"000-000-0000","contact_email":"fitforthecure@macys.com","phone":"973-785-9525","lat":"40.9400","lon":"-74.2400","event_status":"published"}},{"type":"Feature","geometry":{"type":"Point","coordinates":[-73.79,42.66]},"properties":{"event_type":"4","event_id":"4272","store_id":"83","date":"09\/23\/2016","start_time":"11:00:00","end_time":"17:00:00","store_name":"Colonie Center","address1":"WOLF ROAD COLONIE SHOPPING CENTER","address2":"200 Colonie Center","city":"Albany","state":"NY","zip":"12205","region":"Northeast","district":"NY East","floor":"1st floor","contact_phone":"000-000-0000","contact_email":"fitforthecure@macys.com","phone":"518-459-1950","lat":"42.6600","lon":"-73.7900","event_status":"published"}},{"type":"Feature","geometry":{"type":"Point","coordinates":[-87.68,41.83]},"properties":{"event_type":"4","event_id":"4273","store_id":"215","date":"10\/27\/2016","start_time":"11:00:00","end_time":"17:00:00","store_name":"State Street","address1":"111 North State Street","address2":"","city":"Chicago","state":"IL","zip":"60602","region":"North","district":"Chicago South","floor":"1st floor","contact_phone":"000-000-0000","contact_email":"fitforthecure@macys.com","phone":"312-781-1000","lat":"41.8300","lon":"-87.6800","event_status":"published"}},{"type":"Feature","geometry":{"type":"Point","coordinates":[-87.95,41.83]},"properties":{"event_type":"4","event_id":"4274","store_id":"217","date":"10\/28\/2016","start_time":"11:00:00","end_time":"17:00:00","store_name":"Oakbrook Center","address1":"1 Oak Brook Center","address2":"","city":"Oak Brook","state":"IL","zip":"60523","region":"North","district":"Chicago North","floor":"1st floor","contact_phone":"000-000-0000","contact_email":"fitforthecure@macys.com","phone":"630-684-2400","lat":"41.8300","lon":"-87.9500","event_status":"published"}},{"type":"Feature","geometry":{"type":"Point","coordinates":[-87.73,42.03]},"properties":{"event_type":"4","event_id":"4275","store_id":"218","date":"10\/27\/2016","start_time":"11:00:00","end_time":"17:00:00","store_name":"Old Orchard","address1":"1 Old Orchard Shopping Center","address2":"","city":"Skokie","state":"IL","zip":"60077","region":"North","district":"Chicago North","floor":"1st floor","contact_phone":"000-000-0000","contact_email":"fitforthecure@macys.com","phone":"847-329-2700","lat":"42.0300","lon":"-87.7300","event_status":"published"}},{"type":"Feature","geometry":{"type":"Point","coordinates":[-87.68,41.83]},"properties":{"event_type":"4","event_id":"4276","store_id":"219","date":"10\/28\/2016","start_time":"11:00:00","end_time":"17:00:00","store_name":"Water Tower Place","address1":"835 North Michigan Avenue","address2":"","city":"Chicago","state":"IL","zip":"60611","region":"North","district":"Chicago North","floor":"1st floor","contact_phone":"000-000-0000","contact_email":"fitforthecure@macys.com","phone":"312-335-7700","lat":"41.8300","lon":"-87.6800","event_status":"published"}},{"type":"Feature","geometry":{"type":"Point","coordinates":[-87.96,42.23]},"properties":{"event_type":"4","event_id":"4277","store_id":"220","date":"10\/28\/2016","start_time":"11:00:00","end_time":"17:00:00","store_name":"Hawthorn Center","address1":"1 Hawthorn Center","address2":"","city":"Vernon Hills","state":"IL","zip":"60061","region":"North","district":"Chicago North","floor":"1st floor","contact_phone":"000-000-0000","contact_email":"fitforthecure@macys.com","phone":"847-918-2700","lat":"42.2300","lon":"-87.9600","event_status":"published"}},{"type":"Feature","geometry":{"type":"Point","coordinates":[-93.26,44.96]},"properties":{"event_type":"4","event_id":"4278","store_id":"231","date":"10\/28\/2016","start_time":"11:00:00","end_time":"17:00:00","store_name":"Southdale Center","address1":"100 Southdale Center","address2":"","city":"Edina","state":"MN","zip":"55435","region":"North","district":"Minneapolis West","floor":"1st floor","contact_phone":"000-000-0000","contact_email":"fitforthecure@macys.com","phone":"952-924-6600","lat":"44.9600","lon":"-93.2600","event_status":"published"}},{"type":"Feature","geometry":{"type":"Point","coordinates":[-93.4,44.92]},"properties":{"event_type":"4","event_id":"4279","store_id":"232","date":"10\/28\/2016","start_time":"11:00:00","end_time":"17:00:00","store_name":"Ridgedale","address1":"12411 WAYZATA BLVD.","address2":"","city":"Minnetonka","state":"MN","zip":"55305","region":"North","district":"Minneapolis West","floor":"1st floor","contact_phone":"000-000-0000","contact_email":"fitforthecure@macys.com","phone":"952-591-6600","lat":"44.9200","lon":"-93.4000","event_status":"published"}},{"type":"Feature","geometry":{"type":"Point","coordinates":[-93.1,44.94]},"properties":{"event_type":"4","event_id":"4280","store_id":"233","date":"10\/27\/2016","start_time":"11:00:00","end_time":"17:00:00","store_name":"Rosedale Center","address1":"900 Rosedale Center","address2":"","city":"Roseville","state":"MN","zip":"55113","region":"North","district":"Minneapolis East","floor":"1st floor","contact_phone":"000-000-0000","contact_email":"fitforthecure@macys.com","phone":"651-639-6600","lat":"44.9400","lon":"-93.1000","event_status":"published"}},{"type":"Feature","geometry":{"type":"Point","coordinates":[-93.27,44.76]},"properties":{"event_type":"4","event_id":"4281","store_id":"235","date":"10\/27\/2016","start_time":"11:00:00","end_time":"17:00:00","store_name":"Burnsville Center","address1":"14251 Burnhaven Drive","address2":"","city":"Burnsville","state":"MN","zip":"55306","region":"North","district":"Minneapolis East","floor":"1st floor","contact_phone":"000-000-0000","contact_email":"fitforthecure@macys.com","phone":"952-435-8811","lat":"44.7600","lon":"-93.2700","event_status":"published"}},{"type":"Feature","geometry":{"type":"Point","coordinates":[-93.1,44.94]},"properties":{"event_type":"4","event_id":"4282","store_id":"236","date":"10\/25\/2016","start_time":"11:00:00","end_time":"17:00:00","store_name":"Maplewood","address1":"3001 White Bear Avenue","address2":"","city":"Maplewood","state":"MN","zip":"55109","region":"North","district":"Minneapolis East","floor":"1st floor","contact_phone":"000-000-0000","contact_email":"fitforthecure@macys.com","phone":"651-773-6600","lat":"44.9400","lon":"-93.1000","event_status":"published"}},{"type":"Feature","geometry":{"type":"Point","coordinates":[-92.47,44.01]},"properties":{"event_type":"4","event_id":"4283","store_id":"238","date":"10\/20\/2016","start_time":"11:00:00","end_time":"17:00:00","store_name":"Apache","address1":"901 Apache Mall","address2":"","city":"Rochester","state":"MN","zip":"55902","region":"North","district":"Minneapolis East","floor":"1st floor","contact_phone":"000-000-0000","contact_email":"fitforthecure@macys.com","phone":"507-280-5400","lat":"44.0100","lon":"-92.4700","event_status":"published"}},{"type":"Feature","geometry":{"type":"Point","coordinates":[-94.17,45.55]},"properties":{"event_type":"4","event_id":"4284","store_id":"243","date":"10\/26\/2016","start_time":"11:00:00","end_time":"17:00:00","store_name":"Crossroads Center","address1":"4201 W. DIVISION STREET","address2":"Cross Roads Ctr","city":"St. Cloud","state":"MN","zip":"56301","region":"North","district":"Minneapolis West","floor":"1st floor","contact_phone":"000-000-0000","contact_email":"fitforthecure@macys.com","phone":"320-654-4300","lat":"45.5500","lon":"-94.1700","event_status":"published"}},{"type":"Feature","geometry":{"type":"Point","coordinates":[-91.23,43.82]},"properties":{"event_type":"4","event_id":"4285","store_id":"245","date":"10\/19\/2016","start_time":"11:00:00","end_time":"17:00:00","store_name":"Valley View","address1":"3900 State Road 16","address2":"Valley View Mall","city":"La Crosse","state":"WI","zip":"54601","region":"North","district":"Minneapolis East","floor":"1st floor","contact_phone":"000-000-0000","contact_email":"fitforthecure@macys.com","phone":"608-781-7800","lat":"43.8200","lon":"-91.2300","event_status":"published"}},{"type":"Feature","geometry":{"type":"Point","coordinates":[-87.96,43.06]},"properties":{"event_type":"4","event_id":"4286","store_id":"260","date":"10\/29\/2016","start_time":"11:00:00","end_time":"17:00:00","store_name":"Mayfair","address1":"2500 N. MAYFAIR ROAD","address2":"","city":"Wauwatosa","state":"WI","zip":"53226","region":"North","district":"Chicago North","floor":"1st floor","contact_phone":"000-000-0000","contact_email":"fitforthecure@macys.com","phone":"414-471-3525","lat":"43.0600","lon":"-87.9600","event_status":"published"}},{"type":"Feature","geometry":{"type":"Point","coordinates":[-83.14,42.58]},"properties":{"event_type":"4","event_id":"4287","store_id":"301","date":"10\/28\/2016","start_time":"11:00:00","end_time":"17:00:00","store_name":"Somerset Collection","address1":"2750 WEST BIG BEAVER ROAD","address2":"","city":"Troy","state":"MI","zip":"48084","region":"North","district":"Detroit","floor":"1st floor","contact_phone":"000-000-0000","contact_email":"fitforthecure@macys.com","phone":"248-816-4000","lat":"42.5800","lon":"-83.1400","event_status":"published"}},{"type":"Feature","geometry":{"type":"Point","coordinates":[-85.65,42.96]},"properties":{"event_type":"4","event_id":"4288","store_id":"307","date":"10\/28\/2016","start_time":"11:00:00","end_time":"17:00:00","store_name":"Woodland","address1":"3165 28TH STREET","address2":"","city":"Grand Rapids","state":"MI","zip":"49512","region":"North","district":"Michigan","floor":"1st floor","contact_phone":"000-000-0000","contact_email":"fitforthecure@macys.com","phone":"616-940-2100","lat":"42.9600","lon":"-85.6500","event_status":"published"}},{"type":"Feature","geometry":{"type":"Point","coordinates":[-84.41,42.7]},"properties":{"event_type":"4","event_id":"4289","store_id":"313","date":"10\/27\/2016","start_time":"11:00:00","end_time":"17:00:00","store_name":"Meridian","address1":"1982 W. GRAND RIVER","address2":"","city":"Okemos","state":"MI","zip":"48864","region":"North","district":"Michigan","floor":"1st floor","contact_phone":"000-000-0000","contact_email":"fitforthecure@macys.com","phone":"517-347-4400","lat":"42.7000","lon":"-84.4100","event_status":"published"}},{"type":"Feature","geometry":{"type":"Point","coordinates":[-85.59,42.2]},"properties":{"event_type":"4","event_id":"4290","store_id":"316","date":"10\/27\/2016","start_time":"11:00:00","end_time":"17:00:00","store_name":"The Crossroads","address1":"6666 S. WESTNEDGE AVENUE","address2":"","city":"Portage","state":"MI","zip":"49002","region":"North","district":"Michigan","floor":"1st floor","contact_phone":"000-000-0000","contact_email":"fitforthecure@macys.com","phone":"269-324-4400","lat":"42.2000","lon":"-85.5900","event_status":"published"}},{"type":"Feature","geometry":{"type":"Point","coordinates":[-85.6,44.75]},"properties":{"event_type":"4","event_id":"4291","store_id":"319","date":"10\/20\/2016","start_time":"11:00:00","end_time":"17:00:00","store_name":"Grand Traverse","address1":"3400 SOUTH AIRPORT ROAD W.","address2":"","city":"Traverse City","state":"MI","zip":"49684","region":"North","district":"Michigan","floor":"1st floor","contact_phone":"000-000-0000","contact_email":"fitforthecure@macys.com","phone":"231-929-6800","lat":"44.7500","lon":"-85.6000","event_status":"published"}},{"type":"Feature","geometry":{"type":"Point","coordinates":[-122.03,37.89]},"properties":{"event_type":"4","event_id":"4292","store_id":"324","date":"10\/27\/2016","start_time":"11:00:00","end_time":"17:00:00","store_name":"Walnut Creek Broadway Plaza","address1":"1320 BROADWAY PLAZA","address2":"","city":"Walnut Creek","state":"CA","zip":"94596","region":"Northwest","district":"Bay Area North","floor":"1st floor","contact_phone":"000-000-0000","contact_email":"fitforthecure@macys.com","phone":"925-279-3333","lat":"37.8900","lon":"-122.0300","event_status":"published"}},{"type":"Feature","geometry":{"type":"Point","coordinates":[-122.78,38.44]},"properties":{"event_type":"4","event_id":"4293","store_id":"325","date":"09\/23\/2016","start_time":"11:00:00","end_time":"17:00:00","store_name":"Santa Rosa Plaza","address1":"800 SANTA ROSE PLAZA","address2":"","city":"Santa Rosa","state":"CA","zip":"95401","region":"Northwest","district":"Bay Area North","floor":"1st floor","contact_phone":"000-000-0000","contact_email":"fitforthecure@macys.com","phone":"707-523-3333","lat":"38.4400","lon":"-122.7800","event_status":"published"}},{"type":"Feature","geometry":{"type":"Point","coordinates":[-122.51,37.92]},"properties":{"event_type":"4","event_id":"4294","store_id":"328","date":"09\/22\/2016","start_time":"11:00:00","end_time":"17:00:00","store_name":"Corte Madera Village","address1":"1400 REDWOOD HIGHWAY","address2":"","city":"Corte Madera","state":"CA","zip":"94925","region":"Northwest","district":"Bay Area North","floor":"1st floor","contact_phone":"000-000-0000","contact_email":"fitforthecure@macys.com","phone":"415-927-3333","lat":"37.9200","lon":"-122.5100","event_status":"published"}},{"type":"Feature","geometry":{"type":"Point","coordinates":[-121.93,37.67]},"properties":{"event_type":"4","event_id":"4295","store_id":"333","date":"10\/26\/2016","start_time":"11:00:00","end_time":"17:00:00","store_name":"Pleasanton Stoneridge","address1":"1300 STONERIDGE MALL RD.","address2":"","city":"Pleasanton","state":"CA","zip":"94588","region":"Northwest","district":"Bay Area South","floor":"1st floor","contact_phone":"000-000-0000","contact_email":"fitforthecure@macys.com","phone":"925-463-3333","lat":"37.6700","lon":"-121.9300","event_status":"published"}},{"type":"Feature","geometry":{"type":"Point","coordinates":[-122.18,37.37]},"properties":{"event_type":"4","event_id":"4296","store_id":"334","date":"10\/26\/2016","start_time":"11:00:00","end_time":"17:00:00","store_name":"Stanford","address1":"300 STANFORD MALL","address2":"","city":"Palo Alto","state":"CA","zip":"94304","region":"Northwest","district":"Valley Fair","floor":"1st floor","contact_phone":"000-000-0000","contact_email":"fitforthecure@macys.com","phone":"650-326-3333","lat":"37.3700","lon":"-122.1800","event_status":"published"}},{"type":"Feature","geometry":{"type":"Point","coordinates":[-121.03,37.72]},"properties":{"event_type":"4","event_id":"4297","store_id":"335","date":"09\/23\/2016","start_time":"11:00:00","end_time":"17:00:00","store_name":"Modesto Vintage Fair","address1":"500 VINTAGE FAIRE","address2":"","city":"Modesto","state":"CA","zip":"95356","region":"Northwest","district":"Bay Area South","floor":"1st floor","contact_phone":"000-000-0000","contact_email":"fitforthecure@macys.com","phone":"209-575-3333","lat":"37.7200","lon":"-121.0300","event_status":"published"}},{"type":"Feature","geometry":{"type":"Point","coordinates":[-104.87,39.76]},"properties":{"event_type":"4","event_id":"4298","store_id":"344","date":"10\/28\/2016","start_time":"11:00:00","end_time":"17:00:00","store_name":"Cherry Creek Sc","address1":"15 SOUTH STEELE STREET","address2":"","city":"Denver","state":"CO","zip":"80209","region":"South Central","district":"Colorado","floor":"1st floor","contact_phone":"000-000-0000","contact_email":"fitforthecure@macys.com","phone":"303-390-2200","lat":"39.7600","lon":"-104.8700","event_status":"published"}},{"type":"Feature","geometry":{"type":"Point","coordinates":[-105.01,39.59]},"properties":{"event_type":"4","event_id":"4299","store_id":"345","date":"10\/27\/2016","start_time":"11:00:00","end_time":"17:00:00","store_name":"Park Meadows","address1":"8455 PARK MEADOWS CENTER DRIVE","address2":"","city":"Littleton","state":"CO","zip":"80124","region":"South Central","district":"Colorado","floor":"1st floor","contact_phone":"000-000-0000","contact_email":"fitforthecure@macys.com","phone":"303-566-6370","lat":"39.5900","lon":"-105.0100","event_status":"published"}},{"type":"Feature","geometry":{"type":"Point","coordinates":[-105.06,40.55]},"properties":{"event_type":"4","event_id":"4300","store_id":"348","date":"10\/26\/2016","start_time":"11:00:00","end_time":"17:00:00","store_name":"Fort Collins Foothills Fashion","address1":"225 EAST FOOTHILLS PARKWAY","address2":"","city":"Ft. Collins","state":"CO","zip":"80525","region":"South Central","district":"Colorado","floor":"1st floor","contact_phone":"000-000-0000","contact_email":"fitforthecure@macys.com","phone":"970-226-5300","lat":"40.5500","lon":"-105.0600","event_status":"published"}},{"type":"Feature","geometry":{"type":"Point","coordinates":[-121.95,37.34]},"properties":{"event_type":"4","event_id":"4301","store_id":"358","date":"10\/28\/2016","start_time":"11:00:00","end_time":"17:00:00","store_name":"Valley Fair","address1":"2801 STEVENS CREEK BLVD.","address2":"","city":"Santa Clara","state":"CA","zip":"95050","region":"Northwest","district":"Valley Fair","floor":"1st floor","contact_phone":"000-000-0000","contact_email":"fitforthecure@macys.com","phone":"408-248-3333","lat":"37.3400","lon":"-121.9500","event_status":"published"}},{"type":"Feature","geometry":{"type":"Point","coordinates":[-119.76,36.79]},"properties":{"event_type":"4","event_id":"4302","store_id":"359","date":"10\/07\/2016","start_time":"11:00:00","end_time":"17:00:00","store_name":"Fresno Fashion Fair","address1":"4888 NORTH FRESNO ST.","address2":"","city":"Fresno","state":"CA","zip":"93726","region":"Northwest","district":"Bay Area South","floor":"1st floor","contact_phone":"000-000-0000","contact_email":"fitforthecure@macys.com","phone":"559-228-3333","lat":"36.7900","lon":"-119.7600","event_status":"published"}},{"type":"Feature","geometry":{"type":"Point","coordinates":[-121.88,36.6]},"properties":{"event_type":"4","event_id":"4303","store_id":"361","date":"09\/22\/2016","start_time":"11:00:00","end_time":"17:00:00","store_name":"Monterey Del Monte Center","address1":"100 DEL MONTE CENTER","address2":"","city":"Monterey","state":"CA","zip":"93940","region":"Northwest","district":"Valley Fair","floor":"1st floor","contact_phone":"000-000-0000","contact_email":"fitforthecure@macys.com","phone":"831-372-3333","lat":"36.6000","lon":"-121.8800","event_status":"published"}},{"type":"Feature","geometry":{"type":"Point","coordinates":[-121.95,36.97]},"properties":{"event_type":"4","event_id":"4304","store_id":"364","date":"09\/23\/2016","start_time":"11:00:00","end_time":"17:00:00","store_name":"Capitola","address1":"1865 41st Avenue","address2":"","city":"Capitola","state":"CA","zip":"95010","region":"Northwest","district":"Valley Fair","floor":"1st floor","contact_phone":"000-000-0000","contact_email":"fitforthecure@macys.com","phone":"831-621-3333","lat":"36.9700","lon":"-121.9500","event_status":"published"}},{"type":"Feature","geometry":{"type":"Point","coordinates":[-122.21,47.61]},"properties":{"event_type":"4","event_id":"4305","store_id":"368","date":"09\/23\/2016","start_time":"11:00:00","end_time":"17:00:00","store_name":"Bellevue Square","address1":"400 BELLEVUE SQUARE","address2":"","city":"Bellevue","state":"WA","zip":"98004","region":"Northwest","district":"North Seattle","floor":"1st floor","contact_phone":"000-000-0000","contact_email":"fitforthecure@macys.com","phone":"425-688-6000","lat":"47.6100","lon":"-122.2100","event_status":"published"}},{"type":"Feature","geometry":{"type":"Point","coordinates":[-119.77,36.88]},"properties":{"event_type":"4","event_id":"4306","store_id":"369","date":"10\/06\/2016","start_time":"11:00:00","end_time":"17:00:00","store_name":"Shops at River Park","address1":"7890 N. Blackstone Avenue","address2":"","city":"Fresno","state":"CA","zip":"93720","region":"Northwest","district":"Bay Area South","floor":"1st floor","contact_phone":"000-000-0000","contact_email":"fitforthecure@macys.com","phone":"559-451-3333","lat":"36.8800","lon":"-119.7700","event_status":"published"}},{"type":"Feature","geometry":{"type":"Point","coordinates":[-122.28,47.85]},"properties":{"event_type":"4","event_id":"4307","store_id":"370","date":"09\/22\/2016","start_time":"11:00:00","end_time":"17:00:00","store_name":"Alderwood","address1":"18700 ALDERWOOD MALL BLVD.","address2":"","city":"Lynnwood","state":"WA","zip":"98037","region":"Northwest","district":"North Seattle","floor":"1st floor","contact_phone":"000-000-0000","contact_email":"fitforthecure@macys.com","phone":"425-712-6000","lat":"47.8500","lon":"-122.2800","event_status":"published"}},{"type":"Feature","geometry":{"type":"Point","coordinates":[-122.72,47.67]},"properties":{"event_type":"4","event_id":"4308","store_id":"373","date":"10\/26\/2016","start_time":"11:00:00","end_time":"17:00:00","store_name":"Silverdale Kitsap","address1":"10315 SILVERDALE WAY","address2":"","city":"Silverdale","state":"WA","zip":"98383","region":"Northwest","district":"North Seattle","floor":"1st floor","contact_phone":"000-000-0000","contact_email":"fitforthecure@macys.com","phone":"360-613-6000","lat":"47.6700","lon":"-122.7200","event_status":"published"}},{"type":"Feature","geometry":{"type":"Point","coordinates":[-123.08,44.06]},"properties":{"event_type":"4","event_id":"4309","store_id":"382","date":"09\/21\/2016","start_time":"11:00:00","end_time":"17:00:00","store_name":"Eugene Valley River Ctr","address1":"100 VALLEY RIVER CENTER","address2":"","city":"Eugene","state":"OR","zip":"97401","region":"Northwest","district":"Oregon","floor":"1st floor","contact_phone":"000-000-0000","contact_email":"fitforthecure@macys.com","phone":"541-984-6611","lat":"44.0600","lon":"-123.0800","event_status":"published"}},{"type":"Feature","geometry":{"type":"Point","coordinates":[-121.25,44.07]},"properties":{"event_type":"4","event_id":"4310","store_id":"383","date":"09\/23\/2016","start_time":"11:00:00","end_time":"17:00:00","store_name":"Bend River","address1":"3140 N. HIGHWAY 97","address2":"","city":"Bend","state":"OR","zip":"97701","region":"Northwest","district":"Oregon","floor":"1st floor","contact_phone":"000-000-0000","contact_email":"fitforthecure@macys.com","phone":"541-317-6000","lat":"44.0700","lon":"-121.2500","event_status":"published"}},{"type":"Feature","geometry":{"type":"Point","coordinates":[-122.9,42.28]},"properties":{"event_type":"4","event_id":"4311","store_id":"385","date":"10\/21\/2016","start_time":"11:00:00","end_time":"17:00:00","store_name":"Medford Rogue Valley","address1":"1800 NORTH RIVERSIDE DRIVE","address2":"","city":"Medford","state":"OR","zip":"97501","region":"Northwest","district":"Oregon","floor":"1st floor","contact_phone":"000-000-0000","contact_email":"fitforthecure@macys.com","phone":"541-772-3700","lat":"42.2800","lon":"-122.9000","event_status":"published"}},{"type":"Feature","geometry":{"type":"Point","coordinates":[-122.76,45.44]},"properties":{"event_type":"4","event_id":"4312","store_id":"392","date":"09\/23\/2016","start_time":"11:00:00","end_time":"17:00:00","store_name":"Washington Square","address1":"9300 S.W. WASHINGTON SQUARE RD.","address2":"","city":"Portland","state":"OR","zip":"97223","region":"Northwest","district":"Portland","floor":"1st floor","contact_phone":"000-000-0000","contact_email":"fitforthecure@macys.com","phone":"503-620-3311","lat":"45.4400","lon":"-122.7600","event_status":"published"}},{"type":"Feature","geometry":{"type":"Point","coordinates":[-116.28,43.63]},"properties":{"event_type":"4","event_id":"4313","store_id":"393","date":"10\/27\/2016","start_time":"11:00:00","end_time":"17:00:00","store_name":"Boise Towne Square","address1":"370 NORTH MILWAUKEE","address2":"","city":"Boise","state":"ID","zip":"83704","region":"Northwest","district":"Portland","floor":"1st floor","contact_phone":"000-000-0000","contact_email":"fitforthecure@macys.com","phone":"208-373-6000","lat":"43.6300","lon":"-116.2800","event_status":"published"}},{"type":"Feature","geometry":{"type":"Point","coordinates":[-117.19,47.69]},"properties":{"event_type":"4","event_id":"4314","store_id":"395","date":"09\/22\/2016","start_time":"11:00:00","end_time":"17:00:00","store_name":"Spokane Valley","address1":"14740 EAST INDIANA","address2":"","city":"Spokane","state":"WA","zip":"99216","region":"Northwest","district":"Portland","floor":"1st floor","contact_phone":"000-000-0000","contact_email":"fitforthecure@macys.com","phone":"509-893-6000","lat":"47.6900","lon":"-117.1900","event_status":"published"}},{"type":"Feature","geometry":{"type":"Point","coordinates":[-117.38,47.69]},"properties":{"event_type":"4","event_id":"4315","store_id":"396","date":"09\/23\/2016","start_time":"11:00:00","end_time":"17:00:00","store_name":"Northtown","address1":"N. 4770 DIVISION","address2":"","city":"Spokane","state":"WA","zip":"99207","region":"Northwest","district":"Portland","floor":"1st floor","contact_phone":"000-000-0000","contact_email":"fitforthecure@macys.com","phone":"509-482-6800","lat":"47.6900","lon":"-117.3800","event_status":"published"}},{"type":"Feature","geometry":{"type":"Point","coordinates":[-121.49,38.58]},"properties":{"event_type":"4","event_id":"4316","store_id":"406","date":"10\/27\/2016","start_time":"11:00:00","end_time":"17:00:00","store_name":"Sacramento Downtown Plaza","address1":"414 K ST","address2":"","city":"Sacramento","state":"CA","zip":"95814","region":"Northwest","district":"Sacramento","floor":"1st floor","contact_phone":"000-000-0000","contact_email":"fitforthecure@macys.com","phone":"916-444-3333","lat":"38.5800","lon":"-121.4900","event_status":"published"}},{"type":"Feature","geometry":{"type":"Point","coordinates":[-121.46,38.6]},"properties":{"event_type":"4","event_id":"4317","store_id":"407","date":"10\/27\/2016","start_time":"11:00:00","end_time":"17:00:00","store_name":"Arden Fair","address1":"1701 ARDEN WAY","address2":"","city":"Sacramento","state":"CA","zip":"95815","region":"Northwest","district":"Sacramento","floor":"1st floor","contact_phone":"000-000-0000","contact_email":"fitforthecure@macys.com","phone":"916-925-2845","lat":"38.6000","lon":"-121.4600","event_status":"published"}},{"type":"Feature","geometry":{"type":"Point","coordinates":[-121.28,38.76]},"properties":{"event_type":"4","event_id":"4318","store_id":"408","date":"10\/28\/2016","start_time":"11:00:00","end_time":"17:00:00","store_name":"Roseville Galleria","address1":"1197 GALLERIA BLVD","address2":"","city":"Roseville","state":"CA","zip":"95678","region":"Northwest","district":"Sacramento","floor":"1st floor","contact_phone":"000-000-0000","contact_email":"fitforthecure@macys.com","phone":"916-771-3333","lat":"38.7600","lon":"-121.2800","event_status":"published"}},{"type":"Feature","geometry":{"type":"Point","coordinates":[-119.74,39.48]},"properties":{"event_type":"4","event_id":"4319","store_id":"409","date":"09\/30\/2016","start_time":"11:00:00","end_time":"17:00:00","store_name":"Reno Meadowood","address1":"5100 Meadowood Mall Circle","address2":"","city":"Reno","state":"NV","zip":"89502","region":"Northwest","district":"Sacramento","floor":"1st floor","contact_phone":"000-000-0000","contact_email":"fitforthecure@macys.com","phone":"775-826-8333","lat":"39.4800","lon":"-119.7400","event_status":"published"}},{"type":"Feature","geometry":{"type":"Point","coordinates":[-121.26,38.69]},"properties":{"event_type":"4","event_id":"4320","store_id":"410","date":"10\/26\/2016","start_time":"11:00:00","end_time":"17:00:00","store_name":"Sunrise","address1":"6000 SUNRISE BLVD.","address2":"","city":"Citrus Heights","state":"CA","zip":"95610","region":"Northwest","district":"Sacramento","floor":"1st floor","contact_phone":"000-000-0000","contact_email":"fitforthecure@macys.com","phone":"916-962-3333","lat":"38.6900","lon":"-121.2600","event_status":"published"}},{"type":"Feature","geometry":{"type":"Point","coordinates":[-122.25,40.68]},"properties":{"event_type":"4","event_id":"4321","store_id":"411","date":"10\/14\/2016","start_time":"11:00:00","end_time":"17:00:00","store_name":"Redding Mt. Shasta","address1":"1291 HILLTOP DR","address2":"","city":"Redding","state":"CA","zip":"96003","region":"Northwest","district":"Sacramento","floor":"1st floor","contact_phone":"000-000-0000","contact_email":"fitforthecure@macys.com","phone":"530-722-9111","lat":"40.6800","lon":"-122.2500","event_status":"published"}},{"type":"Feature","geometry":{"type":"Point","coordinates":[-122.41,37.77]},"properties":{"event_type":"4","event_id":"4322","store_id":"428","date":"10\/28\/2016","start_time":"11:00:00","end_time":"17:00:00","store_name":"San Francisco Union Square","address1":"170 O'FARRELL ST","address2":"","city":"San Francisco","state":"CA","zip":"94102","region":"Northwest","district":"San Francisco","floor":"1st floor","contact_phone":"000-000-0000","contact_email":"fitforthecure@macys.com","phone":"415-397-3333","lat":"37.7700","lon":"-122.4100","event_status":"published"}},{"type":"Feature","geometry":{"type":"Point","coordinates":[-122.3,37.54]},"properties":{"event_type":"4","event_id":"4323","store_id":"429","date":"10\/27\/2016","start_time":"11:00:00","end_time":"17:00:00","store_name":"Hillsdale","address1":"301 HILLSDALE MALL","address2":"","city":"San Mateo","state":"CA","zip":"94403","region":"Northwest","district":"San Francisco","floor":"1st floor","contact_phone":"000-000-0000","contact_email":"fitforthecure@macys.com","phone":"650-341-3333","lat":"37.5400","lon":"-122.3000","event_status":"published"}},{"type":"Feature","geometry":{"type":"Point","coordinates":[-122.47,47.21]},"properties":{"event_type":"4","event_id":"4324","store_id":"434","date":"10\/27\/2016","start_time":"11:00:00","end_time":"17:00:00","store_name":"Tacoma","address1":"4502 SOUTH STEELE","address2":"#700","city":"Tacoma","state":"WA","zip":"98409","region":"Northwest","district":"South Seattle","floor":"1st floor","contact_phone":"000-000-0000","contact_email":"fitforthecure@macys.com","phone":"253-471-6800","lat":"47.2100","lon":"-122.4700","event_status":"published"}},{"type":"Feature","geometry":{"type":"Point","coordinates":[-123.06,47.1]},"properties":{"event_type":"4","event_id":"4325","store_id":"436","date":"10\/28\/2016","start_time":"11:00:00","end_time":"17:00:00","store_name":"Olympia Capital","address1":"625 BlackLake Blvd SW #301","address2":"","city":"Olympia","state":"WA","zip":"98502","region":"Northwest","district":"South Seattle","floor":"1st floor","contact_phone":"000-000-0000","contact_email":"fitforthecure@macys.com","phone":"360-534-7075","lat":"47.1000","lon":"-123.0600","event_status":"published"}},{"type":"Feature","geometry":{"type":"Point","coordinates":[-111.92,33.49]},"properties":{"event_type":"4","event_id":"4326","store_id":"450","date":"09\/23\/2016","start_time":"11:00:00","end_time":"17:00:00","store_name":"Scottsdale Fashion Square","address1":"7014 EAST CAMELBACK RD","address2":"","city":"Scottsdale","state":"AZ","zip":"85251","region":"South Central","district":"Arizona","floor":"1st floor","contact_phone":"000-000-0000","contact_email":"fitforthecure@macys.com","phone":"480-840-0333","lat":"33.4900","lon":"-111.9200","event_status":"published"}},{"type":"Feature","geometry":{"type":"Point","coordinates":[-112.18,33.66]},"properties":{"event_type":"4","event_id":"4327","store_id":"452","date":"09\/22\/2016","start_time":"11:00:00","end_time":"17:00:00","store_name":"Arrowhead Towne Center","address1":"7600 WEST ARROWHEAD TOWNE CENTER","address2":"","city":"Glendale","state":"AZ","zip":"85308","region":"South Central","district":"Arizona","floor":"1st floor","contact_phone":"000-000-0000","contact_email":"fitforthecure@macys.com","phone":"623-979-7900","lat":"33.6600","lon":"-112.1800","event_status":"published"}},{"type":"Feature","geometry":{"type":"Point","coordinates":[-157.85,21.3]},"properties":{"event_type":"4","event_id":"4328","store_id":"466","date":"10\/14\/2016","start_time":"11:00:00","end_time":"17:00:00","store_name":"Ala Moana (Oahu)","address1":"1450 ALA MOANA BLVD.","address2":"","city":"Honolulu","state":"HI","zip":"96814","region":"Southwest","district":"Hawaii","floor":"1st floor","contact_phone":"000-000-0000","contact_email":"fitforthecure@macys.com","phone":"808-941-2345","lat":"21.3000","lon":"-157.8500","event_status":"published"}},{"type":"Feature","geometry":{"type":"Point","coordinates":[-156.45,20.87]},"properties":{"event_type":"4","event_id":"4329","store_id":"469","date":"10\/11\/2016","start_time":"11:00:00","end_time":"17:00:00","store_name":"Kaahumanu Center (Maui)","address1":"275 KAAHUMANU AVENUE","address2":"","city":"Kahului","state":"HI","zip":"96732","region":"Southwest","district":"Hawaii","floor":"1st floor","contact_phone":"000-000-0000","contact_email":"fitforthecure@macys.com","phone":"808-877-3361","lat":"20.8700","lon":"-156.4500","event_status":"published"}},{"type":"Feature","geometry":{"type":"Point","coordinates":[-155.08,19.69]},"properties":{"event_type":"4","event_id":"4330","store_id":"471","date":"10\/13\/2016","start_time":"11:00:00","end_time":"17:00:00","store_name":"Prince Kuhio Plaza (Hawaii)","address1":"111 EAST PUAINAKO STREET","address2":"","city":"Hilo","state":"HI","zip":"96720","region":"Southwest","district":"Hawaii","floor":"1st floor","contact_phone":"000-000-0000","contact_email":"fitforthecure@macys.com","phone":"808-959-3561","lat":"19.6900","lon":"-155.0800","event_status":"published"}},{"type":"Feature","geometry":{"type":"Point","coordinates":[-118.55,34.24]},"properties":{"event_type":"4","event_id":"4331","store_id":"491","date":"10\/20\/2016","start_time":"11:00:00","end_time":"17:00:00","store_name":"Northridge Fashion Center","address1":"9301 TAMPA AVE","address2":"","city":"Northridge","state":"CA","zip":"91324","region":"Southwest","district":"LA North","floor":"1st floor","contact_phone":"000-000-0000","contact_email":"fitforthecure@macys.com","phone":"818-885-6611","lat":"34.2400","lon":"-118.5500","event_status":"published"}},{"type":"Feature","geometry":{"type":"Point","coordinates":[-118.88,34.21]},"properties":{"event_type":"4","event_id":"4332","store_id":"492","date":"10\/27\/2016","start_time":"11:00:00","end_time":"17:00:00","store_name":"Thousand Oaks","address1":"220 W. HILLCREST","address2":"","city":"Thousand Oaks","state":"CA","zip":"91360","region":"Southwest","district":"LA North","floor":"1st floor","contact_phone":"000-000-0000","contact_email":"fitforthecure@macys.com","phone":"805-496-4444","lat":"34.2100","lon":"-118.8800","event_status":"published"}},{"type":"Feature","geometry":{"type":"Point","coordinates":[-118.56,34.41]},"properties":{"event_type":"4","event_id":"4333","store_id":"493","date":"10\/26\/2016","start_time":"11:00:00","end_time":"17:00:00","store_name":"Valencia Town Center","address1":"26450 MCBEAN PARKWAY","address2":"","city":"Santa Clarita","state":"CA","zip":"91355","region":"Southwest","district":"LA North","floor":"1st floor","contact_phone":"000-000-0000","contact_email":"fitforthecure@macys.com","phone":"661-287-5911","lat":"34.4100","lon":"-118.5600","event_status":"published"}},{"type":"Feature","geometry":{"type":"Point","coordinates":[-119.72,34.01]},"properties":{"event_type":"4","event_id":"4334","store_id":"497","date":"10\/20\/2016","start_time":"11:00:00","end_time":"17:00:00","store_name":"La Cumbre Plaza","address1":"3805 STATE STREET","address2":"","city":"Santa Barbara","state":"CA","zip":"93105","region":"Southwest","district":"LA North","floor":"1st floor","contact_phone":"000-000-0000","contact_email":"fitforthecure@macys.com","phone":"805-687-6411","lat":"34.0100","lon":"-119.7200","event_status":"published"}},{"type":"Feature","geometry":{"type":"Point","coordinates":[-118.42,34.14]},"properties":{"event_type":"4","event_id":"4335","store_id":"501","date":"10\/19\/2016","start_time":"11:00:00","end_time":"17:00:00","store_name":"Sherman Oaks Fashion Square","address1":"14000 Riverside Drive","address2":"","city":"Sherman Oaks","state":"CA","zip":"91423","region":"Southwest","district":"LA Valley","floor":"1st floor","contact_phone":"000-000-0000","contact_email":"fitforthecure@macys.com","phone":"818-788-8350","lat":"34.1400","lon":"-118.4200","event_status":"published"}},{"type":"Feature","geometry":{"type":"Point","coordinates":[-118.13,34.14]},"properties":{"event_type":"4","event_id":"4336","store_id":"508","date":"10\/28\/2016","start_time":"11:00:00","end_time":"17:00:00","store_name":"Pasadena","address1":"401 SOUTHLAKE AVE","address2":"","city":"Pasadena","state":"CA","zip":"91101","region":"Southwest","district":"LA Valley","floor":"1st floor","contact_phone":"000-000-0000","contact_email":"fitforthecure@macys.com","phone":"626-792-0211","lat":"34.1400","lon":"-118.1300","event_status":"published"}},{"type":"Feature","geometry":{"type":"Point","coordinates":[-118.4,33.88]},"properties":{"event_type":"4","event_id":"4337","store_id":"514","date":"09\/23\/2016","start_time":"11:00:00","end_time":"17:00:00","store_name":"Manhattan Beach","address1":"3400 SEPULVEDA BLVD","address2":"","city":"Manhattan Beach","state":"CA","zip":"90266","region":"Southwest","district":"LA West","floor":"1st floor","contact_phone":"000-000-0000","contact_email":"fitforthecure@macys.com","phone":"310-546-5525","lat":"33.8800","lon":"-118.4000","event_status":"published"}},{"type":"Feature","geometry":{"type":"Point","coordinates":[-117.9,33.67]},"properties":{"event_type":"4","event_id":"4338","store_id":"523","date":"10\/27\/2016","start_time":"11:00:00","end_time":"17:00:00","store_name":"South Coast Plaza","address1":"3333 S. BRISTOL ST","address2":"","city":"Costa Mesa","state":"CA","zip":"92626","region":"Southwest","district":"Orange county","floor":"1st floor","contact_phone":"000-000-0000","contact_email":"fitforthecure@macys.com","phone":"714-556-0611","lat":"33.6700","lon":"-117.9000","event_status":"published"}},{"type":"Feature","geometry":{"type":"Point","coordinates":[-117.66,33.6]},"properties":{"event_type":"4","event_id":"4339","store_id":"526","date":"09\/22\/2016","start_time":"11:00:00","end_time":"17:00:00","store_name":"Mission Viejo","address1":"200 THE SHOPS AT MISSION VIEJO","address2":"","city":"Mission Viejo","state":"CA","zip":"92691","region":"Southwest","district":"Orange county","floor":"1st floor","contact_phone":"000-000-0000","contact_email":"fitforthecure@macys.com","phone":"949-364-3111","lat":"33.6000","lon":"-117.6600","event_status":"published"}},{"type":"Feature","geometry":{"type":"Point","coordinates":[-117.87,33.62]},"properties":{"event_type":"4","event_id":"4340","store_id":"528","date":"09\/23\/2016","start_time":"11:00:00","end_time":"17:00:00","store_name":"Newport Fashion Island","address1":"101 NEWPORT CENTER DRIVE","address2":"","city":"Newport Beach","state":"CA","zip":"92660","region":"Southwest","district":"Orange county","floor":"1st floor","contact_phone":"000-000-0000","contact_email":"fitforthecure@macys.com","phone":"949-640-8333","lat":"33.6200","lon":"-117.8700","event_status":"published"}},{"type":"Feature","geometry":{"type":"Point","coordinates":[-115.12,36.11]},"properties":{"event_type":"4","event_id":"4341","store_id":"532","date":"10\/21\/2016","start_time":"11:00:00","end_time":"17:00:00","store_name":"Las Vegas Fashion Show","address1":"3200 LAS VEGAS BLVD. S.","address2":"","city":"Las Vegas","state":"NV","zip":"89109","region":"Southwest","district":"Riverside","floor":"1st floor","contact_phone":"000-000-0000","contact_email":"fitforthecure@macys.com","phone":"702-731-5111","lat":"36.1100","lon":"-115.1200","event_status":"published"}},{"type":"Feature","geometry":{"type":"Point","coordinates":[-116.4,33.7]},"properties":{"event_type":"4","event_id":"4342","store_id":"534","date":"11\/10\/2016","start_time":"11:00:00","end_time":"17:00:00","store_name":"Palm Desert","address1":"72-780 HIGHWAY 111","address2":"","city":"Palm Desert","state":"CA","zip":"92260","region":"Southwest","district":"Riverside","floor":"1st floor","contact_phone":"000-000-0000","contact_email":"fitforthecure@macys.com","phone":"760-346-9300","lat":"33.7000","lon":"-116.4000","event_status":"published"}},{"type":"Feature","geometry":{"type":"Point","coordinates":[-117.1,33.53]},"properties":{"event_type":"4","event_id":"4343","store_id":"535","date":"10\/28\/2016","start_time":"11:00:00","end_time":"17:00:00","store_name":"Temecula Promenade","address1":"40780 Winchester Road","address2":"","city":"Temecula","state":"CA","zip":"92591","region":"Southwest","district":"Riverside","floor":"1st floor","contact_phone":"000-000-0000","contact_email":"fitforthecure@macys.com","phone":"951-541-3333","lat":"33.5300","lon":"-117.1000","event_status":"published"}},{"type":"Feature","geometry":{"type":"Point","coordinates":[-117.01,32.78]},"properties":{"event_type":"4","event_id":"4344","store_id":"549","date":"10\/27\/2016","start_time":"11:00:00","end_time":"17:00:00","store_name":"Grossmont Sc","address1":"5500 GROSSMONT CENTER DRIVE","address2":"","city":"La Mesa","state":"CA","zip":"91942","region":"Southwest","district":"San Diego","floor":"1st floor","contact_phone":"000-000-0000","contact_email":"fitforthecure@macys.com","phone":"619-465-1121","lat":"32.7800","lon":"-117.0100","event_status":"published"}},{"type":"Feature","geometry":{"type":"Point","coordinates":[-84.51,39.09]},"properties":{"event_type":"4","event_id":"4346","store_id":"560","date":"10\/28\/2016","start_time":"11:00:00","end_time":"17:00:00","store_name":"Kenwood Towne Centre","address1":"7875 MONTGOMERY ROAD","address2":"Kenwood Towne Centre","city":"Cincinnati","state":"OH","zip":"45236","region":"Midwest","district":"Cincinnati","floor":"1st floor","contact_phone":"000-000-0000","contact_email":"fitforthecure@macys.com","phone":"513-247-6400","lat":"39.0900","lon":"-84.5100","event_status":"published"}},{"type":"Feature","geometry":{"type":"Point","coordinates":[-84.45,38.04]},"properties":{"event_type":"4","event_id":"4347","store_id":"561","date":"10\/28\/2016","start_time":"11:00:00","end_time":"17:00:00","store_name":"Fayette","address1":"3301 NICHOLASVILLE ROAD","address2":"","city":"Lexington","state":"KY","zip":"40503","region":"Midwest","district":"Cincinnati","floor":"1st floor","contact_phone":"000-000-0000","contact_email":"fitforthecure@macys.com","phone":"859-271-7200","lat":"38.0400","lon":"-84.4500","event_status":"published"}},{"type":"Feature","geometry":{"type":"Point","coordinates":[-85.74,38.22]},"properties":{"event_type":"4","event_id":"4348","store_id":"562","date":"10\/27\/2016","start_time":"11:00:00","end_time":"17:00:00","store_name":"Oxmoor Center","address1":"7900 SHELBYVILLE ROAD","address2":"","city":"Louisville","state":"KY","zip":"40222","region":"Midwest","district":"Cincinnati","floor":"1st floor","contact_phone":"000-000-0000","contact_email":"fitforthecure@macys.com","phone":"502-423-3000","lat":"38.2200","lon":"-85.7400","event_status":"published"}},{"type":"Feature","geometry":{"type":"Point","coordinates":[-82.29,38.4]},"properties":{"event_type":"4","event_id":"4349","store_id":"563","date":"10\/27\/2016","start_time":"11:00:00","end_time":"17:00:00","store_name":"Huntington","address1":"UNIT # 300 HUNTINGTON MALL","address2":"","city":"Barboursville","state":"WV","zip":"25504","region":"Midwest","district":"Cincinnati","floor":"1st floor","contact_phone":"000-000-0000","contact_email":"fitforthecure@macys.com","phone":"304-733-0244","lat":"38.4000","lon":"-82.2900","event_status":"published"}},{"type":"Feature","geometry":{"type":"Point","coordinates":[-81.63,38.35]},"properties":{"event_type":"4","event_id":"4350","store_id":"566","date":"10\/26\/2016","start_time":"11:00:00","end_time":"17:00:00","store_name":"Charleston Town Center","address1":"201 LEE STREET EAST","address2":"","city":"Charleston","state":"WV","zip":"25301","region":"Midwest","district":"Cincinnati","floor":"1st floor","contact_phone":"000-000-0000","contact_email":"fitforthecure@macys.com","phone":"304-345-9450","lat":"38.3500","lon":"-81.6300","event_status":"published"}},{"type":"Feature","geometry":{"type":"Point","coordinates":[-81.52,41.08]},"properties":{"event_type":"4","event_id":"4351","store_id":"572","date":"10\/28\/2016","start_time":"11:00:00","end_time":"17:00:00","store_name":"Summit","address1":"3265 WEST MARKET STREET","address2":"","city":"Fairlawn","state":"OH","zip":"44333","region":"Midwest","district":"Cleveland","floor":"1st floor","contact_phone":"000-000-0000","contact_email":"fitforthecure@macys.com","phone":"330-867-8888","lat":"41.0800","lon":"-81.5200","event_status":"published"}},{"type":"Feature","geometry":{"type":"Point","coordinates":[-83.13,40.11]},"properties":{"event_type":"4","event_id":"4352","store_id":"585","date":"10\/26\/2016","start_time":"11:00:00","end_time":"17:00:00","store_name":"Tuttle Crossing","address1":"5123 TUTTLE CROSSING BLVD.","address2":"","city":"Dublin","state":"OH","zip":"43016","region":"Midwest","district":"Columbus","floor":"1st floor","contact_phone":"000-000-0000","contact_email":"fitforthecure@macys.com","phone":"614-760-1200","lat":"40.1100","lon":"-83.1300","event_status":"published"}},{"type":"Feature","geometry":{"type":"Point","coordinates":[-82.98,39.98]},"properties":{"event_type":"4","event_id":"4353","store_id":"586","date":"10\/27\/2016","start_time":"11:00:00","end_time":"17:00:00","store_name":"Polaris Fashion Place","address1":"1300 POLARIS PKWY","address2":"","city":"Columbus","state":"OH","zip":"43240","region":"Midwest","district":"Columbus","floor":"1st floor","contact_phone":"000-000-0000","contact_email":"fitforthecure@macys.com","phone":"614-880-6300","lat":"39.9800","lon":"-82.9800","event_status":"published"}},{"type":"Feature","geometry":{"type":"Point","coordinates":[-86.14,39.77]},"properties":{"event_type":"4","event_id":"4354","store_id":"598","date":"10\/28\/2016","start_time":"11:00:00","end_time":"17:00:00","store_name":"Castleton Square","address1":"6020 E. 82ND STREET","address2":"","city":"Indianapolis","state":"IN","zip":"46250","region":"Midwest","district":"Indiana","floor":"1st floor","contact_phone":"000-000-0000","contact_email":"fitforthecure@macys.com","phone":"317-579-4500","lat":"39.7700","lon":"-86.1400","event_status":"published"}},{"type":"Feature","geometry":{"type":"Point","coordinates":[-86.16,41.66]},"properties":{"event_type":"4","event_id":"4355","store_id":"601","date":"10\/19\/2016","start_time":"11:00:00","end_time":"17:00:00","store_name":"University Park","address1":"6501 NORTH GRAPE ROAD","address2":"","city":"Mishawaka","state":"IN","zip":"46545","region":"Midwest","district":"Indiana","floor":"1st floor","contact_phone":"000-000-0000","contact_email":"fitforthecure@macys.com","phone":"574-277-2950","lat":"41.6600","lon":"-86.1600","event_status":"published"}},{"type":"Feature","geometry":{"type":"Point","coordinates":[-86.87,40.41]},"properties":{"event_type":"4","event_id":"4356","store_id":"603","date":"10\/27\/2016","start_time":"11:00:00","end_time":"17:00:00","store_name":"Tippecanoe","address1":"2415 SAGAMORE PARKWAY","address2":"","city":"Lafayette","state":"IN","zip":"47905","region":"Midwest","district":"Indiana","floor":"1st floor","contact_phone":"000-000-0000","contact_email":"fitforthecure@macys.com","phone":"765-447-2141","lat":"40.4100","lon":"-86.8700","event_status":"published"}},{"type":"Feature","geometry":{"type":"Point","coordinates":[-94.68,38.9]},"properties":{"event_type":"4","event_id":"4357","store_id":"609","date":"10\/28\/2016","start_time":"11:00:00","end_time":"17:00:00","store_name":"Town Center Plaza","address1":"5100 W. 119TH STREET","address2":"","city":"Leawood","state":"KS","zip":"66209","region":"South Central","district":"Kansas","floor":"1st floor","contact_phone":"000-000-0000","contact_email":"fitforthecure@macys.com","phone":"913-563-3996","lat":"38.9000","lon":"-94.6800","event_status":"published"}},{"type":"Feature","geometry":{"type":"Point","coordinates":[-79.97,40.43]},"properties":{"event_type":"4","event_id":"4358","store_id":"620","date":"10\/27\/2016","start_time":"11:00:00","end_time":"17:00:00","store_name":"Ross Park","address1":"1004 ROSS PARK MALL","address2":"","city":"Pittsburgh","state":"PA","zip":"15237","region":"Midwest","district":"Pittsburgh North","floor":"1st floor","contact_phone":"000-000-0000","contact_email":"fitforthecure@macys.com","phone":"412-366-1400","lat":"40.4300","lon":"-79.9700","event_status":"published"}},{"type":"Feature","geometry":{"type":"Point","coordinates":[-79.97,40.43]},"properties":{"event_type":"4","event_id":"4359","store_id":"621","date":"10\/28\/2016","start_time":"11:00:00","end_time":"17:00:00","store_name":"South Hills Village","address1":"100 SOUTH HILLS VILLAGE","address2":"","city":"Pittsburgh","state":"PA","zip":"15241","region":"Midwest","district":"Pittsburgh North","floor":"1st floor","contact_phone":"000-000-0000","contact_email":"fitforthecure@macys.com","phone":"412-854-6800","lat":"40.4300","lon":"-79.9700","event_status":"published"}},{"type":"Feature","geometry":{"type":"Point","coordinates":[-79.76,40.42]},"properties":{"event_type":"4","event_id":"4360","store_id":"622","date":"10\/26\/2016","start_time":"11:00:00","end_time":"17:00:00","store_name":"Monroeville","address1":"400 MONROEVILLE MALL","address2":"","city":"Monroeville","state":"PA","zip":"15146","region":"Midwest","district":"Pittsburgh North","floor":"1st floor","contact_phone":"000-000-0000","contact_email":"fitforthecure@macys.com","phone":"412-858-3700","lat":"40.4200","lon":"-79.7600","event_status":"published"}},{"type":"Feature","geometry":{"type":"Point","coordinates":[-90.24,38.63]},"properties":{"event_type":"4","event_id":"4361","store_id":"643","date":"10\/28\/2016","start_time":"11:00:00","end_time":"17:00:00","store_name":"St. Louis Galleria","address1":"1150 ST. LOUIS GALLERIA","address2":"","city":"St. Louis","state":"MO","zip":"63117","region":"North","district":"St.Louis North","floor":"1st floor","contact_phone":"000-000-0000","contact_email":"fitforthecure@macys.com","phone":"314-726-1810","lat":"38.6300","lon":"-90.2400","event_status":"published"}},{"type":"Feature","geometry":{"type":"Point","coordinates":[-89.64,39.78]},"properties":{"event_type":"4","event_id":"4362","store_id":"646","date":"10\/19\/2016","start_time":"11:00:00","end_time":"17:00:00","store_name":"White Oaks","address1":"101 WHITE OAKS MALL","address2":"","city":"Springfield","state":"IL","zip":"62704","region":"North","district":"St.Louis North","floor":"1st floor","contact_phone":"000-000-0000","contact_email":"fitforthecure@macys.com","phone":"217-787-9900","lat":"39.7800","lon":"-89.6400","event_status":"published"}},{"type":"Feature","geometry":{"type":"Point","coordinates":[-90.24,38.63]},"properties":{"event_type":"4","event_id":"4363","store_id":"652","date":"10\/27\/2016","start_time":"11:00:00","end_time":"17:00:00","store_name":"West County","address1":"#2 WEST COUNTY CENTER","address2":"","city":"St. Louis","state":"MO","zip":"63131","region":"North","district":"St.Louis South","floor":"1st floor","contact_phone":"000-000-0000","contact_email":"fitforthecure@macys.com","phone":"314-966-0017","lat":"38.6300","lon":"-90.2400","event_status":"published"}},{"type":"Feature","geometry":{"type":"Point","coordinates":[-96.76,32.79]},"properties":{"event_type":"4","event_id":"4364","store_id":"665","date":"09\/30\/2016","start_time":"11:00:00","end_time":"17:00:00","store_name":"Northpark Center","address1":"8687 NORTH CENTRAL EXPRESSWAY","address2":"","city":"Dallas","state":"TX","zip":"75225","region":"South Central","district":"Dallas","floor":"1st floor","contact_phone":"000-000-0000","contact_email":"fitforthecure@macys.com","phone":"469-232-3600","lat":"32.7900","lon":"-96.7600","event_status":"published"}},{"type":"Feature","geometry":{"type":"Point","coordinates":[-96.74,33.04]},"properties":{"event_type":"4","event_id":"4365","store_id":"668","date":"10\/26\/2016","start_time":"11:00:00","end_time":"17:00:00","store_name":"Collin Creek","address1":"801 NORTH CENTRAL EXPRESSWAY","address2":"","city":"Plano","state":"TX","zip":"75075","region":"South Central","district":"Dallas","floor":"1st floor","contact_phone":"000-000-0000","contact_email":"fitforthecure@macys.com","phone":"972-422-8700","lat":"33.0400","lon":"-96.7400","event_status":"published"}},{"type":"Feature","geometry":{"type":"Point","coordinates":[-97.17,32.83]},"properties":{"event_type":"4","event_id":"4366","store_id":"677","date":"10\/27\/2016","start_time":"11:00:00","end_time":"17:00:00","store_name":"North East","address1":"1101 MELBOURNE ROAD","address2":"","city":"Hurst","state":"TX","zip":"76053","region":"South Central","district":"Fort Worth-Oklahoma","floor":"1st floor","contact_phone":"000-000-0000","contact_email":"fitforthecure@macys.com","phone":"817-317-5460","lat":"32.8300","lon":"-97.1700","event_status":"published"}},{"type":"Feature","geometry":{"type":"Point","coordinates":[-95.38,29.76]},"properties":{"event_type":"4","event_id":"4367","store_id":"686","date":"09\/22\/2016","start_time":"11:00:00","end_time":"17:00:00","store_name":"Memorial City","address1":"303 Memorial City","address2":"Suite 800","city":"Houston","state":"TX","zip":"77024","region":"South Central","district":"Houston-Louisiana","floor":"1st floor","contact_phone":"000-000-0000","contact_email":"fitforthecure@macys.com","phone":"713-461-0400","lat":"29.7600","lon":"-95.3800","event_status":"published"}},{"type":"Feature","geometry":{"type":"Point","coordinates":[-95.38,29.76]},"properties":{"event_type":"4","event_id":"4368","store_id":"687","date":"09\/23\/2016","start_time":"11:00:00","end_time":"17:00:00","store_name":"Galleria Houston At Hildago","address1":"5135 WEST ALABAMA","address2":"","city":"Houston","state":"TX","zip":"77056","region":"South Central","district":"Houston-Louisiana","floor":"1st floor","contact_phone":"000-000-0000","contact_email":"fitforthecure@macys.com","phone":"832-667-4200","lat":"29.7600","lon":"-95.3800","event_status":"published"}},{"type":"Feature","geometry":{"type":"Point","coordinates":[-95.61,29.61]},"properties":{"event_type":"4","event_id":"4369","store_id":"688","date":"09\/21\/2016","start_time":"11:00:00","end_time":"17:00:00","store_name":"First Colony","address1":"16511 Southwest Freeway","address2":"","city":"Sugar Land","state":"TX","zip":"77479","region":"South Central","district":"Houston-Louisiana","floor":"1st floor","contact_phone":"000-000-0000","contact_email":"fitforthecure@macys.com","phone":"281-243-7600","lat":"29.6100","lon":"-95.6100","event_status":"published"}},{"type":"Feature","geometry":{"type":"Point","coordinates":[-90.17,29.99]},"properties":{"event_type":"4","event_id":"4370","store_id":"693","date":"09\/21\/2016","start_time":"11:00:00","end_time":"17:00:00","store_name":"Lakeside Sc","address1":"3301 Veterans Memorial Blvd","address2":"","city":"Metarie","state":"LA","zip":"70002","region":"South Central","district":"Houston-Louisiana","floor":"1st floor","contact_phone":"000-000-0000","contact_email":"fitforthecure@macys.com","phone":"504-484-4600","lat":"29.9900","lon":"-90.1700","event_status":"published"}},{"type":"Feature","geometry":{"type":"Point","coordinates":[-95.38,30.06]},"properties":{"event_type":"4","event_id":"4371","store_id":"716","date":"09\/16\/2016","start_time":"11:00:00","end_time":"17:00:00","store_name":"Woodlands","address1":"1201 LAKE WOODLANDS DRIVE","address2":"","city":"The Woodlands","state":"TX","zip":"77380","region":"South Central","district":"South Houston","floor":"1st floor","contact_phone":"000-000-0000","contact_email":"fitforthecure@macys.com","phone":"281-362-6100","lat":"30.0600","lon":"-95.3800","event_status":"published"}},{"type":"Feature","geometry":{"type":"Point","coordinates":[-95.19,29.51]},"properties":{"event_type":"4","event_id":"4372","store_id":"717","date":"09\/15\/2016","start_time":"11:00:00","end_time":"17:00:00","store_name":"Baybrook","address1":"100 BAYBROOK MALL","address2":"","city":"Friendswood","state":"TX","zip":"77546","region":"South Central","district":"South Houston","floor":"1st floor","contact_phone":"000-000-0000","contact_email":"fitforthecure@macys.com","phone":"281-226-5300","lat":"29.5100","lon":"-95.1900","event_status":"published"}},{"type":"Feature","geometry":{"type":"Point","coordinates":[-84.35,33.84]},"properties":{"event_type":"4","event_id":"4373","store_id":"730","date":"10\/29\/2016","start_time":"11:00:00","end_time":"17:00:00","store_name":"Lenox Square","address1":"3393 PEACHTREE ROAD NE","address2":"","city":"Atlanta","state":"GA","zip":"30326","region":"Southeast","district":"Atlanta East","floor":"1st floor","contact_phone":"000-000-0000","contact_email":"fitforthecure@macys.com","phone":"404-231-2800","lat":"33.8400","lon":"-84.3500","event_status":"published"}},{"type":"Feature","geometry":{"type":"Point","coordinates":[-84.27,34.06]},"properties":{"event_type":"4","event_id":"4374","store_id":"732","date":"10\/07\/2016","start_time":"11:00:00","end_time":"17:00:00","store_name":"Northpoint","address1":"5000 NORTH POINT CIRCLE","address2":"","city":"Alpharetta","state":"GA","zip":"30022","region":"Southeast","district":"Atlanta East","floor":"1st floor","contact_phone":"000-000-0000","contact_email":"fitforthecure@macys.com","phone":"770-410-2600","lat":"34.0600","lon":"-84.2700","event_status":"published"}},{"type":"Feature","geometry":{"type":"Point","coordinates":[-84.61,34.02]},"properties":{"event_type":"4","event_id":"4375","store_id":"743","date":"10\/06\/2016","start_time":"11:00:00","end_time":"17:00:00","store_name":"Town Center At Cobb","address1":"400 ERNEST BARRETT PARKWAY","address2":"Suite 300","city":"Kennesaw","state":"GA","zip":"30144","region":"Southeast","district":"Atlanta West","floor":"1st floor","contact_phone":"000-000-0000","contact_email":"fitforthecure@macys.com","phone":"770-423-2600","lat":"34.0200","lon":"-84.6100","event_status":"published"}},{"type":"Feature","geometry":{"type":"Point","coordinates":[-80.1,26.37]},"properties":{"event_type":"4","event_id":"4376","store_id":"757","date":"10\/29\/2016","start_time":"11:00:00","end_time":"17:00:00","store_name":"Boca Raton Town Center","address1":"5700 W. GLADES RD","address2":"","city":"Boca Raton","state":"FL","zip":"33431","region":"Southeast","district":"Ft.Lauderdale-Palm Beach","floor":"1st floor","contact_phone":"000-000-0000","contact_email":"fitforthecure@macys.com","phone":"561-393-4400","lat":"26.3700","lon":"-80.1000","event_status":"published"}},{"type":"Feature","geometry":{"type":"Point","coordinates":[-80.13,26.23]},"properties":{"event_type":"4","event_id":"4377","store_id":"759","date":"10\/27\/2016","start_time":"11:00:00","end_time":"17:00:00","store_name":"Coral Square","address1":"9129 W. ATLANTIC BLVD.","address2":"","city":"Coral Springs","state":"FL","zip":"33071","region":"Southeast","district":"Ft.Lauderdale-Palm Beach","floor":"1st floor","contact_phone":"000-000-0000","contact_email":"fitforthecure@macys.com","phone":"954-345-3300","lat":"26.2300","lon":"-80.1300","event_status":"published"}},{"type":"Feature","geometry":{"type":"Point","coordinates":[-80.12,26.74]},"properties":{"event_type":"4","event_id":"4378","store_id":"760","date":"10\/28\/2016","start_time":"11:00:00","end_time":"17:00:00","store_name":"The Gardens","address1":"3107 P.G.A. BLVD. PALM BEACH GARDENS","address2":"","city":"Palm Beach Gardens","state":"FL","zip":"33410","region":"Southeast","district":"Ft.Lauderdale-Palm Beach","floor":"1st floor","contact_phone":"000-000-0000","contact_email":"fitforthecure@macys.com","phone":"561-775-2300","lat":"26.7400","lon":"-80.1200","event_status":"published"}},{"type":"Feature","geometry":{"type":"Point","coordinates":[-80.13,26.14]},"properties":{"event_type":"4","event_id":"4379","store_id":"761","date":"10\/19\/2016","start_time":"11:00:00","end_time":"17:00:00","store_name":"Galleria (Ft. Lauderdale)","address1":"2314 E. SUNRISE BLVD.","address2":"","city":"Ft. Lauderdale","state":"FL","zip":"33304","region":"Southeast","district":"Ft.Lauderdale-Palm Beach","floor":"1st floor","contact_phone":"000-000-0000","contact_email":"fitforthecure@macys.com","phone":"954-537-2300","lat":"26.1400","lon":"-80.1300","event_status":"published"}},{"type":"Feature","geometry":{"type":"Point","coordinates":[-80.2,25.77]},"properties":{"event_type":"4","event_id":"4380","store_id":"769","date":"10\/20\/2016","start_time":"11:00:00","end_time":"17:00:00","store_name":"Aventura","address1":"19535 BISCAYNE BLVD. AVENTURA","address2":"","city":"N. Miami","state":"FL","zip":"33180","region":"Southeast","district":"Miami North","floor":"1st floor","contact_phone":"000-000-0000","contact_email":"fitforthecure@macys.com","phone":"305-682-3300","lat":"25.7700","lon":"-80.2000","event_status":"published"}},{"type":"Feature","geometry":{"type":"Point","coordinates":[-80.16,26.02]},"properties":{"event_type":"4","event_id":"4381","store_id":"771","date":"10\/26\/2016","start_time":"11:00:00","end_time":"17:00:00","store_name":"Pembroke Lakes","address1":"11605 PINES BLVD.","address2":"","city":"Pembroke Pines","state":"FL","zip":"33026","region":"Southeast","district":"Miami North","floor":"1st floor","contact_phone":"000-000-0000","contact_email":"fitforthecure@macys.com","phone":"954-438-2400","lat":"26.0200","lon":"-80.1600","event_status":"published"}},{"type":"Feature","geometry":{"type":"Point","coordinates":[-80.2,25.77]},"properties":{"event_type":"4","event_id":"4382","store_id":"776","date":"10\/08\/2016","start_time":"11:00:00","end_time":"17:00:00","store_name":"Dadeland","address1":"7303 S.W. 88TH ST","address2":"","city":"Miami","state":"FL","zip":"33156","region":"Southeast","district":"Miami South","floor":"1st floor","contact_phone":"000-000-0000","contact_email":"fitforthecure@macys.com","phone":"305-662-3400","lat":"25.7700","lon":"-80.2000","event_status":"published"}},{"type":"Feature","geometry":{"type":"Point","coordinates":[-82.37,34.83]},"properties":{"event_type":"4","event_id":"4383","store_id":"781","date":"10\/27\/2016","start_time":"11:00:00","end_time":"17:00:00","store_name":"Haywood","address1":"700 HAYWOOD ROAD","address2":"","city":"Greenville","state":"SC","zip":"29607","region":"Southeast","district":"Carolinas","floor":"1st floor","contact_phone":"000-000-0000","contact_email":"fitforthecure@macys.com","phone":"864-297-2020","lat":"34.8300","lon":"-82.3700","event_status":"published"}},{"type":"Feature","geometry":{"type":"Point","coordinates":[-81.37,28.5]},"properties":{"event_type":"4","event_id":"4384","store_id":"810","date":"10\/29\/2016","start_time":"11:00:00","end_time":"17:00:00","store_name":"Orlando Millenia","address1":"4298 MILLENIA BLVD.ORLANDO","address2":"","city":"Orlando","state":"FL","zip":"32839","region":"Southeast","district":"Northern Florida","floor":"1st floor","contact_phone":"000-000-0000","contact_email":"fitforthecure@macys.com","phone":"407-264-2300","lat":"28.5000","lon":"-81.3700","event_status":"published"}},{"type":"Feature","geometry":{"type":"Point","coordinates":[-81.37,28.5]},"properties":{"event_type":"4","event_id":"4385","store_id":"811","date":"10\/27\/2016","start_time":"11:00:00","end_time":"17:00:00","store_name":"Florida Mall","address1":"8001 S. ORANGE BLOSSOM TRAIL","address2":"","city":"Orlando","state":"FL","zip":"32809","region":"Southeast","district":"Northern Florida","floor":"1st floor","contact_phone":"000-000-0000","contact_email":"fitforthecure@macys.com","phone":"407-854-2300","lat":"28.5000","lon":"-81.3700","event_status":"published"}},{"type":"Feature","geometry":{"type":"Point","coordinates":[-81.79,26.14]},"properties":{"event_type":"4","event_id":"4386","store_id":"822","date":"09\/22\/2016","start_time":"11:00:00","end_time":"17:00:00","store_name":"Naples Coastland Ctr","address1":"1800 9TH ST N.","address2":"","city":"Naples","state":"FL","zip":"34102","region":"Southeast","district":"Sarasota","floor":"1st floor","contact_phone":"000-000-0000","contact_email":"fitforthecure@macys.com","phone":"239-434-1300","lat":"26.1400","lon":"-81.7900","event_status":"published"}},{"type":"Feature","geometry":{"type":"Point","coordinates":[-82.54,27.33]},"properties":{"event_type":"4","event_id":"4387","store_id":"824","date":"10\/26\/2016","start_time":"11:00:00","end_time":"17:00:00","store_name":"Sarasota Southgate","address1":"3501 South Tamiami Trail","address2":"","city":"Sarasota","state":"FL","zip":"34239","region":"Southeast","district":"Sarasota","floor":"1st floor","contact_phone":"000-000-0000","contact_email":"fitforthecure@macys.com","phone":"941-329-3300","lat":"27.3300","lon":"-82.5400","event_status":"published"}},{"type":"Feature","geometry":{"type":"Point","coordinates":[-82.453,27.3867]},"properties":{"event_type":"4","event_id":"4388","store_id":"828","date":"10\/27\/2016","start_time":"11:00:00","end_time":"17:00:00","store_name":"University Town Center","address1":"110 University Town Center Dr","address2":"","city":"Sarasota","state":"FL","zip":"34243","region":"Southeast","district":"Sarasota","floor":"1st floor","contact_phone":"000-000-0000","contact_email":"fitforthecure@macys.com","phone":"941-232-7300","lat":"27.3867","lon":"-82.4530","event_status":"published"}},{"type":"Feature","geometry":{"type":"Point","coordinates":[-82.76,27.97]},"properties":{"event_type":"4","event_id":"4389","store_id":"831","date":"10\/28\/2016","start_time":"11:00:00","end_time":"17:00:00","store_name":"Countryside","address1":"27001 U.S. 19 N.","address2":"","city":"Clearwater","state":"FL","zip":"33761","region":"Southeast","district":"Tampa","floor":"1st floor","contact_phone":"000-000-0000","contact_email":"fitforthecure@macys.com","phone":"727-724-7312","lat":"27.9700","lon":"-82.7600","event_status":"published"}}],"options":[],"dateupdated":"2016\/08\/15 16:42:58 America\/New_York"}