{ 
	"type": "FeatureCollection",
    "features": [
		{
			"type": "Feature",
			"geometry": {
				"type": "Point",
				"coordinates": [-76.6200, 39.3900]
			},
			"properties":{
				"event_type": "4",
				"event_id": "4256",
				"store_id": "3",
				"date": "09/23/2016",
				"start_time": "11:00:00",
				"end_time": "17:00:00",
				"store_name": "Herald Square",
				"address1": "151 W. 34TH STREET",
				"address2": "",
				"city": "New York",
				"state": "NY",
				"zip": "10001",
				"region": "Northeast",
				"district": "Herald Square",
				"floor": "1st floor",
				"contact_phone": "000-000-0000",
				"contact_email": "fitforthecure@macys.com",
				"phone": "212-695-4400",
				"lat": "40.7100",
				"lon": "-73.9900",
				"event_status": "pending"
			}
		},
		{
			"type": "Feature",
			"geometry": {
				"type": "Point",
				"coordinates": [-73.6400, 40.7200]
			},
			"properties": {
				"event_type": "4",
				"event_id": "4256",
				"store_id": "3",
				"date": "09/23/2016",
				"start_time": "11:00:00",
				"end_time": "17:00:00",
				"store_name": "Herald Square",
				"address1": "151 W. 34TH STREET",
				"address2": "",
				"city": "New York",
				"state": "NY",
				"zip": "10001",
				"region": "Northeast",
				"district": "Herald Square",
				"floor": "1st floor",
				"contact_phone": "000-000-0000",
				"contact_email": "fitforthecure@macys.com",
				"phone": "212-695-4400",
				"lat": "40.7100",
				"lon": "-73.9900",
				"event_status": "pending"
			}
		},
		{
			"type": "Feature",
			"geometry": {
				"type": "Point",
				"coordinates": [-87.6800, 41.8300]
			},
			"properties":{
				"event_type": "4",
				"event_id": "4256",
				"store_id": "3",
				"date": "09/23/2016",
				"start_time": "11:00:00",
				"end_time": "17:00:00",
				"store_name": "Herald Square",
				"address1": "151 W. 34TH STREET",
				"address2": "",
				"city": "New York",
				"state": "NY",
				"zip": "10001",
				"region": "Northeast",
				"district": "Herald Square",
				"floor": "1st floor",
				"contact_phone": "000-000-0000",
				"contact_email": "fitforthecure@macys.com",
				"phone": "212-695-4400",
				"lat": "40.7100",
				"lon": "-73.9900",
				"event_status": "pending"
			}
		}
	]
}